<?xml version="1.0" encoding="UTF-8"?>
<kml xmlns="http://earth.google.com/kml/2.0">
<Folder>
  <name>Namibia</name>
  <open>1</open>
  <Placemark>
    <name>Dead Vlei</name>
    <LookAt>
      <longitude>15.29697486366099</longitude>
      <latitude>-24.76384956658848</latitude>
      <range>18556.78093030961</range>
      <tilt>6.026201102073146e-013</tilt>
      <heading>-0.3032526602575786</heading>
    </LookAt>
    <styleUrl>root://styleMaps#default+nicon=0x307+hicon=0x317</styleUrl>
    <Point>
      <coordinates>15.29506582482671,-24.7642926913631,0</coordinates>
    </Point>
  </Placemark>
  <Placemark>
    <name>Cape Cross</name>
    <LookAt>
      <longitude>13.96325170565764</longitude>
      <latitude>-21.76840548391239</latitude>
      <range>10273.92483885362</range>
      <tilt>6.17111849447738e-012</tilt>
      <heading>0.2117463866976369</heading>
    </LookAt>
    <styleUrl>root://styles#default+icon=0x307</styleUrl>
    <Point>
      <coordinates>13.95391964175312,-21.77284233163979,0</coordinates>
    </Point>
  </Placemark>
  <Placemark>
    <name>Okavango Delta</name>
    <LookAt>
      <longitude>22.68469521325002</longitude>
      <latitude>-19.23842782927208</latitude>
      <range>140081.0385664694</range>
      <tilt>-2.436026170455994e-012</tilt>
      <heading>-3.005244909608232</heading>
    </LookAt>
    <styleUrl>root://styles#default+icon=0x307</styleUrl>
    <Point>
      <coordinates>22.57721516938567,-19.12890241672239,0</coordinates>
    </Point>
  </Placemark>
  <Placemark>
    <name>Etosha Pan</name>
    <LookAt>
      <longitude>16.38803223292015</longitude>
      <latitude>-18.92769813967641</latitude>
      <range>140558.2706123239</range>
      <tilt>-2.81243257939137e-012</tilt>
      <heading>-0.9908840122334826</heading>
    </LookAt>
    <styleUrl>root://styles#default+icon=0x307</styleUrl>
    <Point>
      <coordinates>16.30946822855677,-18.80994903981664,0</coordinates>
    </Point>
  </Placemark>
  <Placemark>
    <name>Brandberg</name>
    <LookAt>
      <longitude>14.57496053106373</longitude>
      <latitude>-21.14544667591085</latitude>
      <range>58445.05302119345</range>
      <tilt>-1.595368162901397e-012</tilt>
      <heading>-0.3797167181599039</heading>
    </LookAt>
    <styleUrl>root://styles#default+icon=0x307</styleUrl>
    <Point>
      <coordinates>14.54895514414477,-21.12613725274388,0</coordinates>
    </Point>
  </Placemark>
  <Placemark>
    <name>Kuiseb Canyon</name>
    <LookAt>
      <longitude>15.41688526556929</longitude>
      <latitude>-23.68030614021718</latitude>
      <range>21560.05543704981</range>
      <tilt>2.812029695865047e-012</tilt>
      <heading>-0.3674852194077839</heading>
    </LookAt>
    <styleUrl>root://styles#default+icon=0x307</styleUrl>
    <Point>
      <coordinates>15.41202525278226,-23.67781478339117,0</coordinates>
    </Point>
  </Placemark>
</Folder>
</kml>
